Country,City,AccentCity,Region,Population,Latitude,Longitude
af,`ali kheyl,`Ali Kheyl,24,,36.697116,68.851365
af,bahadorgay,Bahadorgay,08,,33.183056,68.056944
af,bar-khankheyl',Bar-Khankheyl',37,,33.30201,69.777346
af,butah'i,Butah'i,05,,34.814257,66.855124
af,cal,Cal,27,,34.505057,68.037787
af,kudali,Kudali,29,,33.266111,68.864722
af,malek qyas kalay,Malek Qyas Kalay,18,,34.275501,70.031113
af,mu'menkhel,Mu'menkhel,08,,32.799713,67.752777
af,mukhammedadzhan-kot,Mukhammedadzhan-Kot,29,,32.92643,69.422562
af,qal'a-i-naw,Qal'a-i-Naw,19,,31.536224,62.758054
af,qal`eh-ye qowl-e heydar,Qal`eh-ye Qowl-e Heydar,08,,33.146022,67.504011
af,shinwari,Shinwari,03,,36.000837,68.570617
af,yak pahlu,Yak Pahlu,11,,34.334461,63.738327
af,zowli,Zowli,30,,36.656917,66.79588
al,gadurove,Gadurovë,44,,40.5186111,19.8488889
al,kashisht,Kashisht,44,,40.5983333,19.5405556
al,kopliku-e poshtem,Kopliku-e Poshtëm,49,,42.2136111,19.4363889
al,luniku,Luniku,43,,41.2891667,20.3236111
al,ngureza e madhe,Ngurëza e Madhe,44,,40.8261111,19.7163889
al,ples e zadrims,Ples e Zadrims,49,,41.9697222,19.5538889
al,trovne,Trovnë,49,,42.2208333,19.9297222
al,veseshte,Veseshtë,40,,40.5166667,20.2663889
am,ertich,Ertich,10,,39.7405556,45.2666667
am,shaab,Shaab,05,,40.2522222,44.6383333
ao,bango,Bango,07,,-16.383333,13.616667
ao,cambanzumbe,Cambanzumbe,17,,-8.216667,20.233333
ao,cassai-fana,Cassai-Fana,18,,-10.588912,21.969745
ao,chivanda,Chivanda,09,,-13.45,15.983333
ao,fazenda esperanca,Fazenda Esperança,12,,-9.433333,15.85
ar,rarro negro,Rarro Negro,10,,-24.3,-64.933333
at,badersdorf,Badersdorf,01,,47.2,16.366667
at,mirnig,Mirnig,02,,46.8,14.583333
at,obergassolding,Obergassolding,04,,48.216667,14.75
at,schlattenthal,Schlattenthal,03,,47.65,16.233333
au,cardigan village,Cardigan Village,07,,-37.51091,143.706161
au,sylvaterre,Sylvaterre,07,,-36.116667,144.233333
au,wiyarra,Wiyarra,04,,-28.266667,152.233333
az,hopurlu,Hopurlu,26,,40.03584,45.977294
az,kargalan,Kargalan,29,,38.746181,48.777724
az,kolkyshlak,Kolkyshlak,03,,40.116667,47.05
az,miadzhik,Miadzhik,01,,40.260833,49.438333
ba,dragan selo,Dragan Selo,01,,43.645,17.8033333
ba,laza,Laza,02,,43.2908333,18.5211111
ba,ustikolina,Ustikolina,01,4446,43.5836111,18.79
bd,ghaturia,Ghaturia,83,,24.9833333,89.1833333
bd,khagarjana,Khagarjana,81,,24.7333333,90.1666667
bd,mahmudkati,Mahmudkati,82,,22.6666667,89.3
bd,shahar ahmedpur,Shahar Ahmedpur,81,,24.7666667,90.6666667
bd,uttar chandkhana,Uttar Chandkhana,83,,25.85,89.0333333
be,calvenne,Calvenne,02,,51,4.716667
be,gammel,Gammel,01,,51.366667,4.766667
be,moereinde,Moereinde,01,,51.25,4.783333
be,sint-remigius-geest,Sint-Remigius-Geest,02,,50.75,4.866667
be,zand,Zand,02,,50.9,5.066667
bf,bobeta,Bobéta,69,,10.3666667,-3.5666667
bf,koudougou,Koudougou,19,86965,12.25,-2.3666667
bg,dimitur petkov,Dimitur Petkov,52,,43.7333333,27.1333333
bg,khambardzhilar,Khambardzhilar,43,,41.6166667,25.3833333
bg,obnova,Obnova,46,,43.4333333,24.9833333
bg,orchenlar,Orchenlar,52,,43.2333333,26.4833333
bg,rakovskovo,Rakovskovo,39,,42.8166667,27.75
bg,rebrevtsu,Rebrevtsu,46,,42.9,25.7666667
bg,sabol,Sabol,58,,42.8319444,22.5836111
bi,rurengera,Rurengera,11,,-3.1872222,30.6361111
bj,alafiarou,Alafiarou,10,,9.4,2.6833333
bo,cuchihilga,Cuchihilga,02,,-17.5833333,-65.2333333
bo,kullpachaca,Kullpachaca,07,,-19.1894444,-65.4277778
bo,la cueva chica,La Cueva Chica,01,,-20.9833333,-65.35
bo,lagunilla,Lagunilla,07,,-21.2333333,-65.65
bo,siraomonton,Siraomonton,01,,-19.8666667,-63.8
br,aterradinho,Aterradinho,14,,-16.95,-57.35
br,cajazeiras,Cajazeiras,22,,-6.483333,-38.1
br,curimatai,Curimataí,15,,-17.85,-43.983333
br,fazenda do canal,Fazenda do Canal,05,,-11.35,-41.666667
br,itajahi,Itajahi,26,,-26.883333,-48.65
br,marco prete,Marco Prete,06,,-3.983333,-40.316667
br,passagem,Passagem,15,,-19.283333,-43.216667
br,porto alegre,Pôrto Alegre,16,,-4.350278,-52.737778
br,quinzopolis,Quinzópolis,18,,-23.016667,-50.566667
br,tuneiras do oeste,Tuneiras do Oeste,18,,-23.816667,-52.916667
br,upamirim,Upamirim,05,,-10.466667,-41.25
br,urucu-mirim,Uruçu-Mirim,30,,-8.3,-35.6
by,bazilevka,Bazilevka,07,,55.5,29.05
by,peschanka,Peschanka,07,,54.9,30.2333333
by,volynets,Volynets,07,,55.7,28.1833333
by,wiejna,Wiejna,06,,54.55,27.7333333
ca,dorchester crossing,Dorchester Crossing,04,,46.166667,-64.566667
ca,saint-romuald,Saint-Romuald,10,,46.75,-71.233333
cd,busu-gbolonga,Busu-Gbolonga,00,,1.55,19.45
cd,diobo,Diobo,00,,2.266667,20.483333
cd,djiapanda,Djiapanda,09,,1.4,29.416667
cd,kamususomba,Kamususomba,00,,-6.583333,19.983333
cd,kembowala,Kembowala,02,,-6,17.833333
cd,koiekoie,Koiekoie,00,,-3.366667,23.25
cd,mapanda,Mapanda,00,,-6.666667,17.683333
cd,mulenda,Mulenda,05,,-5.116667,28.9
cf,bangaladeke,Bangaladéké,17,,4.6,18.3333333
ch,arconciel,Arconciel,06,,46.746348,7.124687
ch,jaggisbachau,Jaggisbachau,05,,46.96396,7.314665
ci,bofia,Bofia,81,,6.720045,-5.006264
ci,diamanbo,Diamanbo,83,,7.366234,-5.76568
ci,gitri,Gitri,88,,5.519518,-5.240379
ci,gounioube,Gounioubé,82,,5.393889,-4.146111
ci,korkana,Korkana,87,,9.588071,-5.010828
ci,kouenoufra,Kouénoufra,83,,6.816853,-5.777455
ci,mboka nguessan,Mboka Nguessan,74,,5.696907,-4.399312
ci,ouompleupleu,Ouompleupleu,78,,7.275385,-8.284204
ci,ouorosaniso,Ouorosaniso,75,,8.81597,-7.729201
ci,satiahary,Satiahary,81,,7.0475,-5.278333
cm,guendou,Guendou,12,,10.05,13.3166667
cm,hina-winde,Hina-Winde,12,,10.3333333,13.8666667
cm,mangengues,Mangengués,11,,3.5666667,10.7
cm,roum,Roum,11,,4.7333333,11.1333333
cn,beizhe,Beizhe,07,,23.904545,117.180579
cn,boniaoliangzi,Boniaoliangzi,32,,27.586911,102.53635
cn,cangqian,Cangqian,03,,26.762918,115.512334
cn,changyuho,Changyuho,24,,38.033333,113.183333
cn,chienyangtungtun,Chienyangtungtun,19,,39.9825,124.201389
cn,chingchiang,Chingchiang,32,,28.666667,103.966667
cn,chuchaichen,Chuchaichen,23,,31.21,121.287778
cn,chulin,Chulin,01,,33.141667,116.491667
cn,dadingmiao,Dadingmiao,25,,37.819167,117.347222
cn,dadipo,Dadipo,24,,39.181423,113.806135
cn,daotiejin,Daotiejin,26,,33.796955,106.997045
cn,datiankan,Datiankan,32,,28.662104,105.524478
cn,diaoya,Diaoya,09,,33.601134,112.001099
cn,donghuangnigang,Donghuangnigang,19,,41.113611,123.578056
cn,fujiutian,Fujiutian,30,,21.851963,110.158339
cn,ganpo,Ganpo,15,,35.350817,105.457115
cn,gaoqiaogou,Gaoqiaogou,26,,34.277172,107.4934
cn,heichiaotang,Heichiaotang,20,,41.396944,109.970278
cn,hengdaohezi,Hengdaohezi,05,,41.98507,127.117715
cn,hengshanxia,Hengshanxia,02,,30.114804,119.558857
cn,hojih,Hojih,06,,35.23178,100.986863
cn,houjiaping,Houjiaping,15,,33.196254,104.88896
cn,hsanghawng,Hsanghawng,29,,24.220852,97.786834
cn,huogusi,Huogusi,25,,35.029444,116.2725
cn,huomeichong,Huomeichong,11,,25.658611,112.15
cn,huxibei,Huxibei,07,,24.89095,116.767413
cn,jiajiapu,Jiajiapu,15,,35.682833,105.405902
cn,jiangtang,Jiangtang,02,,29.059295,119.450944
cn,jiuli,Jiuli,11,,29.694685,111.585702
cn,joerhkai,Joerhkai,32,,33.577954,102.964115
cn,kiucheng,Kiucheng,10,,38.188889,117.305556
cn,kuangshantsun,Kuangshantsun,10,,36.814722,114.175833
cn,laojunmiao,Laojunmiao,24,,39.296092,112.550023
cn,lichiaho,Lichiaho,26,,34.183333,110.3
cn,liumengpian,Liumengpian,31,,19.367391,110.330596
cn,malangou,Malangou,26,,33.34417,106.723814
cn,mansian,Mansian,15,,34.668074,104.482618
cn,maochang,Maochang,31,,19.489984,110.183741
cn,meixing,Meixing,32,,31.001069,102.36435
cn,namyung,Namyung,30,,25.116667,114.3
cn,nencheng,Nencheng,08,,49.183333,125.216667
cn,niuwanxu,Niuwanxu,30,,22.438852,112.842622
cn,panpanchiao,Panpanchiao,02,,30.384722,119.871389
cn,pinghsiho,Pinghsiho,26,,32.940514,106.435112
cn,pingle,Pingle,32,,29.013199,103.774636
cn,qiaogoucun,Qiaogoucun,26,,34.038151,109.600844
cn,renjia,Renjia,03,,28.661013,115.673105
cn,shanchungtsun,Shanchungtsun,24,,36.4,110.95
cn,shen,Shen,10,,38.008889,115.548056
cn,shihchichan,Shihchichan,11,,26.275278,111.433611
cn,shixi,Shixi,31,,19.243056,109.547467
cn,sotang,Sotang,14,,30.033333,95.25
cn,tsaiyuan,Tsaiyuan,05,,41.337513,125.712972
cn,tsaokota,Tsaokota,24,,34.919167,110.609444
cn,tuomu,Tuomu,32,,28.413721,103.069972
cn,wanshan,Wanshan,25,,36.574167,115.418333
cn,weiqu,Weiqu,26,,34.151111,108.945
cn,wenlongbao,Wenlongbao,26,,34.792778,108.957778
cn,wuguantang,Wuguantang,04,,31.661885,119.957061
cn,wuzi,Wuzi,15,,34.163942,103.272371
cn,xiaer,Xiaer,32,,29.005935,101.514394
cn,xiaogujiazi,Xiaogujiazi,19,,40.770014,122.295383
cn,xiasiqiao,Xiasiqiao,04,,31.660073,118.987201
cn,xingjialong,Xingjialong,12,,29.892625,115.324057
cn,yangfangying,Yangfangying,24,,37.493333,112.361389
cn,yaojiaxitou,Yaojiaxitou,12,,30.686247,112.963439
cn,yufenfang,Yufenfang,08,,44.993829,127.468469
cn,zhangqing,Zhangqing,24,,37.646389,112.652222
cn,zhongying,Zhongying,18,,26.066667,105.083333
cn,zhoujiagou,Zhoujiagou,19,,40.635278,125.143056
cn,zhoulichang,Zhoulichang,32,,29.893445,105.130617
cn,zhoulijia,Zhoulijia,12,,30.089564,114.308771
co,arrayan,Arrayán,33,,4.556686,-73.933675
co,bruselas,Bruselas,16,,1.77413,-76.172175
co,buenas aires,Buenas Aires,20,,1.58114,-77.077742
co,caserio el cobado,Caserío El Cobado,35,,10.15,-75.5
co,flores,Flores,02,,8.114845,-74.778523
co,guaspucal,Guaspucal,20,,1.043608,-77.440083
co,horta,Horta,26,,6.183333,-73.866667
co,manuel pastrana,Manuel Pastrana,12,,8.806667,-76.300278
co,tipacoque,Tipacoque,36,1036,6.42031,-72.691842
cr,el arbolito,El Arbolito,03,,9.883333,-85.433333
cu,guasimal,Guasimal,05,,20.9833333,-78.05
cu,islena,Isleña,01,,22.5,-83.5666667
cu,pueblo nuevo,Pueblo Nuevo,07,,21.6758333,-78.8875
cu,reparto sans souci,Reparto Sans Souci,02,,23.0602778,-82.4480556
cv,ribeira da barca,Ribeira da Barca,17,,15.1333333,-23.7666667
cy,perahorya,Perahorya,04,,35.0166667,33.3875
cz,kochanov,Kochanov,88,,49.794484,14.779141
cz,lazne libverda,Lazne Libverda,83,,50.891031,15.20255
cz,medlanka,Medlanka,78,,49.242113,16.571495
cz,suchdol,Suchdol,79,,48.682859,14.447513
de,badanhausen,Badanhausen,02,,49.016667,11.45
de,durnod,Dürnöd,02,,48.35,13.3
de,edenserloog,Edenserloog,06,,53.666667,7.733333
de,enghausen,Enghausen,02,,48.533333,11.9
de,englreiching,Englreiching,02,,48.75,13.183333
de,forsterei kesselsohl,Försterei Kesselsohl,14,,52.366667,11.616667
de,frenke,Frenke,06,,52.016667,9.45
de,goldbach,Goldbach,01,,47.783333,9.15
de,hardesby,Hardesby,10,,54.75,9.65
de,helmbacher,Helmbacher,08,,49.35,7.983333
de,korle,Körle,05,,51.166667,9.516667
de,lessau,Lessau,02,,49.916667,11.7
de,leyh,Leyh,02,,49.45,11.016667
de,marsmeir,Marsmeir,02,,48.133333,12.1
de,neuenothe,Neuenothe,07,,51.016667,7.716667
de,polvitz-neuemuhle,Polvitz-Neuemühle,14,,52.483333,11.416667
de,schaalby,Schaalby,10,,54.55,9.633333
de,schwenow,Schwenow,11,,52.15,14.05
de,sebexen,Sebexen,06,,51.816667,10.033333
de,seeon-seebruck,Seeon-Seebruck,02,,47.966667,12.466667
de,torring,Törring,02,,48.016667,12.75
de,tullingen,Tüllingen,01,,47.602065,7.64474
de,vielstedt,Vielstedt,06,,53.083333,8.466667
de,wallhofen,Wallhöfen,06,,53.316667,8.883333
de,wehe,Wehe,07,,52.466667,8.666667
dk,oster gammelby,Øster Gammelby,21,,54.99548,8.766006
dk,snevre,Snevre,20,,55.64832,11.621644
do,el ingenio abajo,El Ingenio Abajo,25,,19.5,-70.75
do,las uvas,Las Uvas,30,,19.3166667,-70.4666667
dz,agneb,Agneb,13,,33.9833333,1.5833333
dz,djillali ben amar,Djillali Ben Amar,51,,35.4455556,0.8508333
dz,douar ouled ali,Douar Ouled Ali,26,,35.3736111,0.55
dz,fleurus,Fleurus,09,,35.7111111,-0.4419444
dz,neurkache,Neurkache,35,,36.5833333,2.2333333
dz,zemoura,Zemoura,39,,36.2694444,4.8472222
ee,piiometsa,Piiometsa,04,,58.8822222,25.2841667
ee,sinalepa asundus,Sinalepa Asundus,07,,58.8266667,23.5947222
ee,terepi,Terepi,12,,58.1966667,27.2722222
ee,uearu,Uearu,01,,59.2469444,25.3569444
eg,`atf abu gindi,`Atf Abu Gindi,05,,30.9044444,30.9219444
eg,`izbat mastaruh,`Izbat Mastaruh,21,,31.4802778,30.7019444
eg,al bajhur,Al Bajhur,10,,28.6708333,30.7513889
eg,kafr tidah,Kafr Tidah,21,,31.2144444,30.8525
eg,nag` el-zuqeim muhafazet abd alla,Nag` el-Zuqeim Muhafazet Abd Alla,23,,25.9833333,32.8333333
es,ballestro,Ballestro,54,,38.841789,-2.456085
es,besians,Besiáns,52,,42.28211,.354326
es,cabeza de campo,Cabeza de Campo,55,,42.545833,-6.881131
es,cangues,Cangues,58,,42.472425,-8.089597
es,caserio pastranas,Caserío Pastranas,51,,36.733333,-6.4
es,denia,Denia,60,38953,38.841344,.10797
es,luama,Luama,58,,43.693873,-7.858789
es,morente,Morente,34,,43.332049,-5.838774
es,villardiga,Villárdiga,55,,41.819496,-5.464391
et,addi aro,Addi Aro,53,,13.216446,39.256772
et,argebet,Argebet,46,,11.533333,39.116667
et,awala bate,Awala Bate,51,,9.8,38.033333
et,dembeccia,Dembeccia,46,,10.55,37.483333
et,derouda ler,Derouda Ler,52,,7.698333,46.992778
et,kachisi,Kachisi,51,,9.6,37.833333
et,may dema,May Dema,53,,13.035871,39.693719
fi,hyrsyla,Hyrsylä,13,,60.383333,24.033333
fi,hyvolankyla,Hyvölänkylä,14,,63.233333,28.383333
fi,pasto,Pasto,15,,62.616667,23.133333
fi,pelkosenniemi,Pelkosenniemi,06,,67.110833,27.510556
fi,pietarinmaki,Pietarinmäki,13,,60.372778,24.773611
fi,storsvik,Störsvik,13,,60.066667,24.283333
fm,vinau,Vinau,04,,9.5297222,138.0922222
fr,albiac,Albiac,B3,,43.551701,1.78024
fr,beauvais,Beauvais,A8,,48.496127,2.467986
fr,brolles,Brolles,A8,,48.475205,2.691743
fr,claire-fontaine,Claire-Fontaine,A4,,49.427756,4.738675
fr,cleguerec,Cléguérec,A2,,48.125775,-3.071616
fr,courbette,Courbette,A6,,46.595845,5.565111
fr,craches,Craches,A3,,48.556575,1.810971
fr,crossac,Crossac,B5,,47.411195,-2.169522
fr,cuzoul,Cuzoul,B3,,44.750467,1.695915
fr,foret,Forêt,A7,,49.224227,1.529738
fr,la gautrais,La Gautrais,B5,,47.380565,-2.114972
fr,la mare goubert,La Mare Goubert,A7,,49.63772,.182824
fr,la ricamarie,La Ricamarie,B9,7527,45.416843,4.311988
fr,lalleyriat,Lalleyriat,B9,,46.150552,5.711573
fr,le chatellier,Le Châtellier,99,,48.676035,-.581481
fr,les platrieres,Les Platrières,B8,,43.55,5.433333
fr,pleine-seve,Pleine-Sève,A7,,49.817949,.754915
fr,rilly-sainte-syre,Rilly-Sainte-Syre,A4,,48.444761,3.956918
fr,roguinet,Roguinet,A3,,47.208093,.12752
fr,saint-mards-de-fresne,Saint-Mards-de-Fresne,A7,,49.077675,.46703
fr,santa-maria-maddalena,Santa-Maria-Maddalena,B8,,44.1,7.5
fr,subligny,Subligny,A3,,47.402951,2.755044
fr,vauciennes,Vauciennes,A4,,49.05,3.883333
ga,akoumounou,Akoumounou,08,,-1.6666667,9.35
gb,farnham,Farnham,E4,,51.9,.15
gb,folkton,Folkton,J7,,54.2,-.383333
gb,llanddowror,Llanddowror,X7,,51.801667,-4.531389
gb,patcham,Patcham,B6,,50.85,-.15
gb,pembrey,Pembrey,X7,,51.689167,-4.277222
gb,roch,Roch,Y7,,51.846944,-5.086667
gb,seven sisters,Seven Sisters,Y5,,51.766667,-3.716667
gb,thatcham,Thatcham,P4,24275,51.4,-1.266667
gb,westbury on severn,Westbury on Severn,E6,,51.816667,-2.416667
ge,sargveshi,Sargveshi,27,,42.0730556,43.2625
ge,shimokmedi,Shimokmedi,40,,41.9125,42.0925
gf,couriege,Couriège,00,,4.8,-53.2833333
gh,adeemmra,Adeemmra,02,,6.6,-2.05
gh,adugyansu akomada,Adugyansu Akomada,03,,7.3666667,-2.0333333
gh,alabolaboe,Alabolaboe,08,,6.1166667,0.2166667
gh,gupaneirigu,Gupaneirigu,06,,9.4833333,-0.95
gh,gyedua,Gyedua,09,,4.85,-2.0
gh,kuguri,Kuguri,10,,10.7833333,-0.2833333
gh,niflapo,Niflapo,08,,6.1333333,0.1666667
gh,takuve,Takuve,08,,6.45,0.7333333
gh,togodo,Togodo,08,,6.0997222,1.1097222
gh,zawire,Zawire,06,,9.4666667,-0.85
gl,ikerasagssuaq,Ikerasagssuaq,02,,65.5666667,-37.1166667
gm,makama,Makama,05,,13.6,-15.3166667
gn,dangoura,Dangoura,19,,10.8333333,-9.5
gn,nafaguile,Nafaguilé,26,,10.8,-8.75
gq,bantabare pequeno,Bantabaré Pequeño,05,,3.45,8.7833333
gq,bedoum,Bedoum,07,,2.15,11.0833333
gq,bokoricho-balacha,Bokoricho-Balachá,05,,3.4,8.5666667
gq,nsangayong,Nsangayong,09,,1.4166667,11.3
gr,ano vaskina,Áno Vaskína,41,,37.2,22.7833333
gr,bambalio,Bambalió,31,,38.8166667,21.3333333
gr,laringovi,Laringóvi,15,,40.4819444,23.5927778
gr,pirgos,Pírgos,48,,37.7116667,26.8041667
gr,porro mesoyia,Pórro Mesóyia,43,,35.4666667,23.6
gr,satobasi,Satóbasi,21,,39.7833333,22.4
gr,vakkhon,Vákkhon,41,,37.4666667,22.2
gt,la haciendita,La Haciendita,17,,15.133333,-92.083333
gt,patut,Patut,20,,14.4,-91.516667
gt,quimal,Quimal,03,,14.833333,-90.766667
gt,san agustin,San Agustín,17,,15.4,-90.283333
gt,san antonio suchitepequez,San Antonio Suchitepéquez,20,10726,14.533333,-91.416667
gw,quentico,Quenticó,04,,12.1,-15.2666667
gw,umaro bela,Umaro Bela,10,,12.4666667,-14.1333333
hk,so lo pun,So Lo Pun,00,,22.5333333,114.25
hn,alto verde,Alto Verde,17,,13.4405556,-87.4516667
hn,carrizalio,Carrizalio,08,,13.7166667,-87.2833333
hn,el tablado,El Tablado,02,,13.5738889,-87.3461111
hn,miraflores,Miraflores,02,,13.2833333,-86.75
hr,butkovici,Butkovici,04,,45.0097222,13.9091667
hr,miljci,Miljci,15,,43.5905556,16.9802778
hr,moravice srpske,Moravice Srpske,12,,45.4333333,15.0333333
ht,bayado,Bayado,08,,18.4833333,-73.4833333
ht,johanisse,Johanisse,06,,19.3333333,-72.5833333
ht,lochard,Lochard,11,,18.4333333,-72.6333333
ht,nan palmiste,Nan Palmiste,13,,18.2638889,-72.0816667
ht,salor,Salor,08,,18.4166667,-73.2333333
hu,alsoszallas,Alsószállás,10,,47.6,21.766667
hu,kulsofecskespuszta,Kulsofecskespuszta,03,,46.383333,20.816667
hu,miklospuszta,Miklóspuszta,04,,48.316667,20.4
hu,noszlopi tanya,Noszlopi Tanya,23,,47.183333,17.466667
hu,pillingerpuszta,Pillingérpuszta,09,,47.7,17.533333
hu,szantoresz,Szántórész,20,,46.8,20.133333
hu,ujpetre,Újpetre,02,,45.936667,18.3625
id,aluw bateu,Aluw Bateu,01,,4.8798,97.8397
id,baheesioena,Baheesioena,21,,-.7576,122.9605
id,balokan,Balokan,08,,-8.388985,114.119839
id,banjar umesalakan,Banjar Umesalakan,02,,-8.5538,115.3847
id,bantannyuh kelod,Bantannyuh Kelod,02,,-8.4289,115.6138
id,bantarkalong,Bantarkalong,30,,-6.856667,107.328889
id,batangwarak,Batangwarak,08,,-7.7525,111.371944
id,benjaran,Benjaran,10,,-8.046111,110.447778
id,blok lebak,Blok Lebak,30,,-6.705,108.351389
id,busak satu,Busak Satu,21,,1.2484,121.3598
id,cieurih satu,Cieurih Satu,30,,-7.2148,108.3551
id,galuwalakari,Galuwalakari,18,,-9.5987,119.5329
id,glodogan,Glodogan,07,,-7.220278,110.4175
id,kalagheng,Kalagheng,31,,3.4992,125.6376
id,kaliuwi,Kaliuwi,22,,-4.2571,122.1234
id,kayut,Kayut,07,,-7.0949,111.1515
id,kedewatan,Kedewatan,02,,-8.4265,114.9506
id,kedungdawa,Kedungdawa,07,,-6.927,109.0426
id,kembangrejo,Kembangrejo,07,,-7.565556,110.510278
id,kunciran,Kunciran,30,,-6.219444,106.667778
id,limboeng,Limboeng,38,,-2.5719,119.913
id,lowayu,Lowayu,08,,-6.9737,112.4192
id,manggarawan 2,Manggarawan 2,15,,-5.168356,105.634634
id,moeara boelan,Moeara Boelan,14,,1.2,117.55
id,pabuwaranjarak,Pabuwaranjarak,30,,-6.098333,106.598611
id,pajagan tonggoh,Pajagan Tonggoh,30,,-6.911389,106.607222
id,pandangalor,Pandangalor,24,,-.490279,100.183306
id,pangerian,Pangerian,08,,-7.0584,112.8758
id,patan bili,Patan Bili,01,,3.2013,97.2899
id,pekandelan,Pekandelan,02,,-8.3468,115.6151
id,pematangkelukut,Pematangkelukut,01,,3.5717,99.0311
id,pilar satu,Pilar Satu,30,,-6.566944,106.756667
id,ramung,Ramung,26,,3.851,97.5111
id,ruda,Ruda,18,,-8.7162,121.0827
id,sabrang-lor,Sabrang-lor,07,,-7.4775,110.351667
id,sangen lor,Sangen Lor,07,,-7.494167,110.718889
id,sepuntuk,Sepuntuk,07,,-7.55,111.080833
id,setukalibiru,Setukalibiru,07,,-6.9234,109.1546
id,sibodadi,Sibodadi,01,,4.3061,98.1829
id,sumbermanggis,Sumbermanggis,08,,-7.9215,111.8586
id,tegineneng,Tegineneng,15,,-5.20365,105.176144
id,temorleke,Temorleke,08,,-7.1141,112.7878
id,tjigalontjang,Tjigalontjang,30,,-7.3224,108.0052
id,urutsewu,Urutsewu,07,,-7.439444,110.536389
id,villabukutbandung,Villabukutbandung,30,,-6.928056,107.748333
id,warmandi,Warmandi,39,,-.366667,132.65
ie,bunnagee,Bunnagee,06,,54.9419444,-7.6941667
ie,dun leire,Dún Léire,19,,53.835,-6.3961111
ie,kilbraney,Kilbraney,30,,52.3244444,-6.8347222
ie,mullaghnaneane,Mullaghnaneane,25,,54.3755556,-8.5316667
ie,sandymount,Sandymount,07,,53.335,-6.2113889
in,astagaon,Astagaon,16,,19.666667,74.5
in,bagra,Bagra,24,,25.2,72.583333
in,binewal,Binewal,23,,31.283333,76.25
in,gangolli,Gangolli,19,,13.65,74.666667
in,hadgaon buzurg,Hadgaon Buzurg,16,,19.316667,76.333333
in,haftan,Haftan,12,,34.368056,73.85
in,kangra,Kangra,11,9159,32.1,76.266667
in,katghara brahmanan,Katghara Brahmanan,36,,26.4778,79.3579
in,madawara,Madawara,24,,25.366667,76.15
in,nal ka talav,Nal ka Talav,24,,25.138611,75.612222
in,pasrai,Pasrai,36,,25.5023,79.0269
in,prahladpur,Prahladpur,36,,25.433333,83.45
in,sehral,Sehral,35,,24.9405,78.8782
in,siryasar,Siryasar,24,,28.0771,75.314
in,watwanpur,Watwanpur,12,,34.1625,74.563889
iq,bahriz,Bahriz,10,,33.7055556,44.6505556
iq,chamsayda,Chamsayda,08,,37.1913889,43.2611111
iq,dewana,Dewana,05,,35.1788889,45.5725
iq,hizana,Hizana,08,,36.8583333,43.6902778
iq,hulwan,Hulwan,10,,34.3330556,45.2008333
iq,sayyid `abd `ali,Sayyid `Abd `Ali,09,,30.9236111,46.7258333
iq,suse-i kon,Suse-i Kon,05,,35.7672222,45.1083333
iq,wihab,Wihab,01,,33.3508333,44.1347222
ir,`abbasabad-e jadid,`Abbasabad-e Jadid,42,,35.035604,59.295116
ir,aqkul,Aqkul,34,,35.11,49.4675
ir,atmiyan,Atmiyan,33,,38.1687,47.2848
ir,banehdar-e `aziz,Banehdar-e `Aziz,13,,34.9126,45.8788
ir,benuk,Benuk,04,,27.395708,60.82304
ir,bushkan,Bushkan,07,,30.06,52.44
ir,chah-e sang,Chah-e Sang,29,,28.5027,56.0173
ir,chashmeh-e sabz,Chashmeh-e Sabz,29,,29.464444,56.425
ir,dar mian-e nahr,Dar Mian-e Nahr,29,,30.480343,57.320026
ir,daraj-e `olya,Daraj-e `Olya,42,,33.394317,60.171259
ir,emameh-ye bala,Emameh-ye Bala,39,,34.9,51.583333
ir,gaisur bala,Gaisur Bala,42,,34.266839,59.261859
ir,garang,Garang,29,,28.783333,56.816667
ir,gelyard,Gelyard,35,,36.61119,52.943054
ir,gham towrqeh,Gham Towrqeh,16,,36.277,47.8217
ir,givshad,Givshad,41,,32.654574,59.095305
ir,gowhar,Gowhar,13,,34.0266,46.329
ir,hajji `abbasi,Hajji `Abbasi,11,,27.226667,57.051944
ir,jenablu,Jenablu,32,,38.65,48.116667
ir,kalateh-ye avaz,Kalateh-ye Avaz,41,,31.648467,59.419373
ir,kallu,Kallu,36,,36.0131,48.9319
ir,kat cheshmeh,Kat Cheshmeh,35,,36.540233,53.957785
ir,kazab,Kazab,04,,25.566667,61.316667
ir,khanqah-e pa'in,Khanqah-e Pa'in,32,,38.4,48.333333
ir,kora'i-ye bala,Kora'i-ye Bala,15,,31.805,49.1985
ir,kurak,Kurak,42,,37.358183,59.14337
ir,kushk-e esma`ilabad,Kushk-e Esma`ilabad,07,,29.013,52.5672
ir,mir hashim,Mir Hashim,40,,31.461888,54.253496
ir,mo'asseseh-ye hajji khan dusti,Mo'asseseh-ye Hajji Khan Dusti,15,,31.537778,48.890278
ir,morad tappeh,Morad Tappeh,44,,35.7336,50.2919
ir,mowmenabad,Mowmenabad,25,,35.544364,53.297962
ir,mozdaran,Mozdaran,42,,36.156078,60.53095
ir,owli qeshlaq,Owli Qeshlaq,33,,39.125,47.1958
ir,ramzeyeh-ye yek,Ramzeyeh-ye Yek,15,,31.2534,48.4366
ir,salehabad,Salehabad,36,,35.9994,48.4241
ir,sarbir,Sarbir,11,,26.366667,58.033333
ir,sardehat ja`far,Sardehat Ja`far,36,,36.9649,48.0357
ir,seku mahalleh,Seku Mahalleh,15,,32.716667,48.5
ir,shah kandi,Shah Kandi,09,,34.64973,48.79507
ir,shambrakan,Shambrakan,05,,30.625567,50.725715
ir,sharafabad,Sharafabad,05,,30.682852,51.552946
ir,shekarkash mahalleh,Shekarkash Mahalleh,08,,37.09522,50.2575
ir,takab,Takab,15,,32.739997,48.283737
it,borgomale,Borgomale,12,,44.616667,8.133333
it,bovisa,Bovisa,09,,45.5,9.15
it,castellar,Castellar,12,,44.916667,8.966667
jm,cambridge,Cambridge,15,,18.4333333,-77.6
jo,mote,Mote,09,,31.0925,35.694444
jp,akagawa,Akagawa,12,,42.07,139.455
jp,hikimoto,Hikimoto,23,,34.1,136.233333
jp,kakazi,Kakazi,30,,33.666667,131.516667
jp,kami-kanagawa,Kami-kanagawa,46,,35.683333,138.683333
jp,kataoka,Kataoka,35,,35.05,135.933333
jp,katsura,Katsura,22,,34.983333,135.7
jp,kawara,Kawara,18,,30.333333,130.383333
jp,mukai-awagasaki,Mukai-awagasaki,15,,36.633333,136.633333
jp,obatake,Obatake,11,,34.7,133.25
jp,osame,Osame,03,,40.966667,141.373333
jp,oura,Oura,21,,32.516667,130.366667
jp,yunogo,Yunogo,31,,34.983333,134.133333
kh,kanchung,Kanchung,03,,11.9833333,104.7666667
kh,khum thma edth,Khum Thma Edth,03,,11.9666667,104.6666667
kh,krieng,Krieng,09,,12.6333333,105.9833333
kh,phumi krang kor,Phumi Krang Kor,19,,11.4333333,104.8666667
kh,phumi svay phaem,Phumi Svay Phaem,06,,10.75,104.5166667
kh,trapeang reang,Trapeang Reang,08,,11.2,103.7666667
kp,chongjadong,Chongjadong,06,,38.0088889,126.2588889
kp,hwajonni,Hwajonni,13,,41.4591667,128.2313889
kp,morori,Morori,01,,40.5416667,125.6416667
kp,saemaul,Saemaul,03,,39.7833333,127.4
kp,saetomaul,Saetomaul,06,,37.9641667,126.1925
kp,somunsi,Somunsi,11,,39.7111111,124.6663889
kp,taikayodo,Taikayodo,03,,41.075,128.9047222
kp,takkol,Takkol,07,,38.5219444,126.1538889
kp,tangchon,Tangchon,06,,38.3688889,125.0927778
kp,unjong,Unjong,14,,38.8383333,125.4111111
kp,wolpyongdong,Wolpyongdong,01,,40.8636111,126.0211111
kp,yanghari,Yanghari,03,,39.4519444,127.3533333
kp,yangsandong,Yangsandong,06,,38.2875,125.2075
kp,yokchidong,Yokchidong,11,,40.2733333,125.2752778
kr,andongni,Andongni,05,,37.0353,128.3161
kr,chonwolli,Chonwolli,03,,35.504167,126.793611
kr,gessho,Gessho,16,,34.581389,126.920556
kr,hambakkol,Hambakkol,20,,35.124799,128.452157
kr,hangyangtcheng,Hangyangtcheng,11,,37.5985,126.9783
kr,hasimdong,Hasimdong,17,,36.166667,126.65
kr,kombawi,Kombawi,12,,37.566111,126.675278
kr,majae,Majae,17,,36.3962,126.8927
kr,myongjuri,Myongjuri,16,,34.558611,126.856944
kr,naesadong,Naesadong,06,,37.77884,128.19417
kr,paenamukol,Paenamukol,17,,36.6484,126.8035
kr,taegok,Taegok,06,,37.201491,128.056638
kz,kondrat'yevo,Kondrat'yevo,15,,49.65,83.766667
kz,zamorenov,Zamorenov,07,,51.466667,51.483333
la,ban lamphen,Ban Lamphén,06,,20.025556,100.607222
la,ban samsao noy,Ban Samsao Noy,14,,18.75,103.3
la,same din,Same Din,03,,20.583333,104.1
lb,haret et tahta,Hâret et Tahta,03,,34.1833333,35.9
lk,bayagama,Bayagama,32,,7.7,80.2666667
lk,imiyangoda ihala,Imiyangoda Ihala,32,,7.6,80.25
lk,opata,Opata,34,,6.1,80.2
lr,gohnsua,Gohnsua,05,,7.7758333,-10.1786111
lt,milkunai,Milkunai,60,,55.1833333,26.4333333
lt,podvorishki,Podvorishki,56,,54.4333333,24.1333333
lv,duci,Duci,18,,57.3405556,24.4433333
lv,goveiki,Goveiki,19,,56.4166667,27.6666667
lv,jaungulbenes,Jaungulbenes,09,,57.0666667,26.6
lv,mazbrenguli,Mazbrenguli,31,,57.5166667,25.1333333
lv,sturi,Sturi,27,,56.6,22.75
ma,afauzouart,Afauzouart,55,,30.46,-9.5
ma,ait ali ou youssef,Aït Ali Ou Youssef,56,,32.104818,-6.186068
ma,ait arbi,Aït Arbi,58,,34.96,-4.53
ma,ait arfa,Aït Arfa,56,,32.005265,-6.650892
ma,ait ktab oufella,Aït Ktab Oufella,47,,30.885146,-9.099046
ma,amouguer,Amouguer,48,,30.784107,-5.233821
ma,andouz,Andouz,55,,31.018936,-7.81263
ma,daouina,Daouïna,58,,34.456752,-5.252795
ma,el khetarte n'ouzreg,El Khetarte n'Ouzreg,48,,31.228075,-5.211919
ma,imzil,Imzil,55,,30.521623,-8
ma,tarjicht,Tarjicht,53,,29.058273,-9.428775
ma,tioukarine,Tioukarine,55,,30.631695,-7.711785
md,buschi,Buschi,58,,47.7175,29.077778
md,romanesti,Romanesti,61,,46.331111,28.972778
mg,ankiakabe,Ankiakabe,03,,-14.75,48.9333333
mg,mitanonoka,Mitanonoka,04,,-17.7666667,48.9
mg,sahantaha,Sahantaha,01,,-15.05,50.35
mg,tembizoka,Tembizoka,02,,-23.6,47.0166667
mk,dlabocica,Dlabocica,52,,42.1986111,22.2413889
mk,dzepista,Dzepista,21,,41.4427778,20.5327778
ml,riziam,Riziam,07,,14.4833333,-5.9833333
mm,chaungnakwa,Chaungnakwa,13,,16.1655556,97.9675
mm,hwehawn,Hwehawn,11,,21.3666667,97.5
mm,kamahta,Kamahta,05,,17.3333333,97.8666667
mm,laikawng,Laikawng,04,,25.7666667,97.8
mm,loi-mawt,Loi-mawt,11,,23.4,98.1666667
mm,makaukpat,Makaukpat,10,,24.8,94.7833333
mm,natchaung,Natchaung,05,,16.0,98.15
mm,suangphei,Suangphei,02,,23.15,93.8333333
mm,ta-ni-la-le,Ta-ni-la-lè,06,,19.5166667,97.2333333
mm,thedangyi ywa,Thedangyi Ywa,12,,11.55,98.7333333
mn,baatar uan huryee,Baatar Uan Hüryee,21,,49.4166667,102.7
mw,muyala,Muyala,11,,-13.9833333,33.45
mw,zebediya kaunda,Zebediya Kaunda,21,,-11.5,33.7
mx,alonso osorio,Alonso Osorio,20,,16.183333,-95.166667
mx,amatitan,Amatitán,14,9791,20.833333,-103.716667
mx,capulhuac,Capulhuac,15,20517,19.191389,-99.466944
mx,casitas,Casitas,30,,20.25,-96.783333
mx,el botadero,El Botadero,18,,21.75,-105.266667
mx,el coacoyul,El Coacoyul,12,,16.766667,-99.5
mx,el coyul,El Coyul,20,,15.926389,-95.8125
mx,el laberinto,El Laberinto,27,,17.75,-91.3
mx,el limoncito,El Limoncito,15,,18.433333,-100.233333
mx,el lindero,El Lindero,11,,20.95,-101.633333
mx,el sonoreno,El Sonoreño,06,,28.433333,-106.783333
mx,hacienda san jose,Hacienda San José,07,,25.7,-101.716667
mx,la palma leada,La Palma Leada,12,,17.9,-101.733333
mx,la pinuela,La Piñuela,16,,18.736111,-100.994444
mx,la zarza,La Zarza,20,,16.118056,-94.195278
mx,los acosta,Los Acosta,27,,17.945833,-92.9
mx,los alisos,Los Alisos,11,,21.210833,-101.519444
mx,playa lauro villar,Playa Lauro Villar,28,,25.833333,-97.15
mx,polvoron,Polvorón,26,,27.366667,-110.2
mx,providencia de la parrita,Providencia de la Parrita,19,,24.9,-99.283333
mx,rancho el veracruzano,Rancho El Veracruzano,10,,26.65,-104.216667
mx,rancho rosas,Rancho Rosas,06,,28.35,-108.3
mx,rancho san jose de los brazos,Rancho San José de los Brazos,28,,26.816667,-99.366667
mx,rancho virgen,Rancho Virgen,26,,29.083333,-110
mx,ri playas,Rí Playas,30,,17.175,-93.841667
mx,rio del trovador,Río del Trovador,20,,16.55,-95.466667
mx,san esteban,San Esteban,21,,18.45,-97.283333
mx,san juan de amargos,San Juan De Amargos,07,,25.933333,-101.016667
mx,santo domingo,Santo Domingo,03,,25.491111,-111.917222
mx,santo domingo tonaltepec,Santo Domingo Tonaltepec,20,,17.606111,-97.361389
mx,yervanis,Yervanís,10,,24.737778,-103.843056
my,kampong batu sawar,Kampong Batu Sawar,06,,3.49,103.1245
my,kampong long kiput,Kampong Long Kiput,11,,4.016667,114.383333
my,kampong machang,Kampong Machang,03,,6.066667,102.15
my,kampong nangar,Kampong Nangar,11,,2.566667,111.416667
my,kampung menawo ulu,Kampung Menawo Ulu,16,,5.318,116.2017
my,kampung sama,Kampung Sama,06,,4.0345,101.9627
my,kampung sungai karas,Kampung Sungai Karas,01,,2.357,103.039
my,plaman buta,Plaman Buta,11,,1.35,110.1
my,taman perpaduan,Taman Perpaduan,07,,4.6361,101.1517
mz,alcolete,Alcolete,10,,-16.8138889,34.5558333
mz,chicoma,Chicoma,06,,-14.8611111,40.7625
mz,machachan,Machachan,02,,-24.4083333,33.1302778
mz,meteva,Meteva,06,,-14.4705556,40.4286111
na,epoko,Epoko,36,,-17.4666667,15.2
na,okahwa,Okahwa,32,,-18.7333333,13.8833333
na,tamsu,Tamsu,34,,-18.5833333,20.5666667
ne,dibilo,Dibilo,05,,14.2,0.7833333
ne,ouinditene,Ouinditéne,05,,13.7666667,2.9
ng,ajavwuni ugbevwe,Ajavwuni Ugbevwe,36,,5.878651,5.81072
ng,jauro tuku,Jauro Tuku,55,,10.067848,11.203937
ng,jegan maunde,Jegan Maunde,27,,9.283333,11.516667
ng,maidontoro tsofo,Maidontoro Tsofo,49,,9.716667,9.066667
ng,ndiavu,Ndiavu,45,,5.529419,7.752538
ng,rafin baura,Rafin Baura,40,,12.1,4.233333
ng,rikaka,Rikaka,51,,13.207485,5.667091
ng,sufa,Sufa,46,,12.1533,10.4289
ng,yaza,Yaza,35,,10.294981,13.257877
ng,zhirangwa,Zhirangwa,27,,10.436328,12.266269
ng,zideyeregbene,Zideyeregbene,36,,5.063034,5.764124
ni,el coquital,El Coquital,04,,11.9333333,-85.2
nl,overlangel,Overlangel,06,,51.776131,5.673488
nl,peelsehuis,Peelsehuis,06,,51.622605,5.666831
nl,vorenseinde,Vorenseinde,06,,51.533333,4.583333
no,bentsjord,Bentsjord,18,,69.533333,18.633333
no,bergby,Bergby,05,,70.15,28.916667
no,bo,Bø,20,,59.366667,10.283333
no,hareton,Hareton,01,,59.966667,11.5
no,hauskje,Hauskje,14,,59.216667,6.133333
no,mo,Mo,14,,59.483333,6.3
no,nore,Nore,04,,60.166667,9.016667
no,ristveit,Ristveit,04,,59.866667,9.833333
no,stordalsbugen,Størdalsbugen,16,,63.566667,9.783333
om,as samidah,As Samidah,02,,24.015,56.7527778
om,sur al `abri,Sur al `Abri,02,,24.6566667,56.5152778
pe,antashallalle,Antashallalle,08,,-14.6202778,-71.8877778
pe,cachipujo,Cachipujo,04,,-15.6033333,-71.0658333
pe,cauta,Cauta,04,,-15.5380556,-71.7955556
pe,chaclaya,Chaclaya,18,,-16.1666667,-70.55
pe,cruzcag,Cruzcag,10,,-10.3491667,-76.175
pe,hacienda casa blanca,Hacienda Casa Blanca,02,,-9.5,-78.1333333
pe,hacienda pabur,Hacienda Pabur,20,,-5.2197222,-80.0283333
pe,la palma hacienda,La Palma Hacienda,15,,-12.1166667,-77.0166667
pe,morullo,Morullo,21,,-17.15,-69.6166667
pe,ocona,Ocoña,04,,-16.4330556,-73.1077778
pe,san cristobal,San Cristóbal,10,,-10.2888889,-76.1919444
pe,sisiccaya,Sisiccaya,11,,-13.2,-75.75
pg,badilu,Badilu,12,,-4.8,146.2
pg,karum 2,Karum 2,08,,-6.3333333,145.1666667
pg,kokun,Kokun,12,,-4.3166667,144.6333333
pg,murupukio,Murupukio,06,,-7.6,143.2333333
ph,anibong,Anibong,33,,14.2149,121.4662
ph,bantolan,Bantolan,49,,10.787161,119.587405
ph,botong,Botong,11,,9.72256,124.212958
ph,katongkolan,Katongkolan,21,,10.7035,123.8079
ph,lambac,Lambac,33,,14.2569,121.4572
ph,lombayan,Lombayan,30,,10.6019,122.046
ph,ma-alan,Ma-alan,18,,11.35,122.883333
ph,manaois,Manaois,63,,15.6781,120.6004
ph,mocpoc norte,Mocpoc Norte,11,,9.883333,123.8
ph,munguia proper,Munguia Proper,48,,16.2971,121.1564
ph,oyungan,Oyungan,30,,10.625,122.1868
ph,san roque,San Roque,67,8637,12.533333,124.866667
ph,santa nino,Santa Niño,28,,17.9585,120.7145
ph,sominabang,Sominabang,16,,13.5223,122.9851
ph,tanawan,Tanawan,G8,,15.4017,121.3832
ph,tigbauan-maasin,Tigbauan-Maasin,30,,10.9197,122.4806
pk,al-flah town,Al-Flah Town,05,,24.8737,67.1635
pk,al-nur town,Al-Nur Town,04,,31.4762,74.3625
pk,badiana khurd,Badiana Khurd,04,,32.381462,74.6228
pk,badoke,Badoke,04,,32.266667,74.133333
pk,basto bagley adel khan,Basto Bagley Adel Khan,04,,29.365779,71.086617
pk,baware nau,Baware Nau,04,,32.121188,73.619848
pk,dansai jo,Dansai Jo,02,,27.253188,66.58141
pk,dhok kufri,Dhok Kufri,04,,32.927387,72.334282
pk,faqiran,Faqiran,02,,30.573992,66.641243
pk,firoz kirio,Firoz Kirio,05,,26.12071,68.501826
pk,gaufgarh,Gaufgarh,04,,31.139443,72.651883
pk,goth haji shahdad khushk,Goth Haji Shahdad Khushk,05,,24.552889,67.951628
pk,goth iqbal memon,Goth Iqbal Memon,05,,26.872022,68.371149
pk,goth kativar,Goth Kativar,05,,24.893837,68.049333
pk,gujarke,Gujarke,04,,32.187504,73.455955
pk,hafizabad,Hafizabad,05,,27.869444,68.419444
pk,imamwali,Imamwali,04,,31.537373,70.961926
pk,kachchi kothi,Kachchi Kothi,04,,31.313889,72.923611
pk,kamand rial,Kamand Rial,04,,33.352188,73.298559
pk,khadang,Khadang,03,,34.539048,72.812872
pk,kormal,Kormal,03,,34.930182,72.533297
pk,kriplian,Kriplian,03,,34.290278,72.848333
pk,makaure da wahan,Makaure da Wahan,04,,28.672222,70.214168
pk,mamiam,Mamiam,04,,33.510432,73.502667
pk,mulla katyar,Mulla Katyar,05,,25.113501,68.364715
pk,nawi lali,Nawi Lali,05,,27.982468,68.666921
pk,nola mela,Nola Mela,03,,32.95,71.15
pk,pathai,Pathai,04,,32.495748,74.638372
pk,qadiwind,Qadiwind,04,,31.168333,74.481389
pk,ribatdeh,Ribatdeh,03,,36.223536,71.709809
pk,salem khan jatoi,Salem Khan Jatoi,04,,28.743112,70.397122
pk,sarangpur,Sarangpur,04,,32.320997,74.682243
pk,sodawal,Sodawal,02,,29.482936,66.533716
pk,taralai,Taralai,03,,34.502976,72.713994
pk,wari,Wari,05,,26.891045,67.772507
pl,alt proberg,Alt Proberg,85,,53.829783,21.369387
pl,brzostow,Brzostow,86,,51.964954,17.430097
pl,dabrowa rzeczycka,Dabrowa Rzeczycka,80,,50.656578,22.0443
pl,drawsko kreuz,Drawsko Kreuz,86,,52.853788,16.030228
pl,giecz,Giecz,86,,52.320284,17.37095
pl,greulich,Greulich,72,,51.360189,15.764806
pl,nowinki,Nowinki,75,,51.735047,22.337006
pl,rabka,Rabka,77,,49.616667,19.95
pl,rumunki orlowo,Rumunki Orlowo,73,,52.766667,19.3
pl,schmolz,Schmolz,72,,51.072615,16.881818
pl,slawa,Slawa,87,,53.779732,15.897946
pt,aves,Aves,17,8506,41.370339,-8.410104
pt,paul de cima,Paul de Cima,14,,38.957757,-9.380862
pt,tojal,Tojal,14,,39.083333,-9.083333
ro,banesti,Banesti,42,5636,45.1,25.766667
ro,buzahaza,Buzahaza,27,,46.6,24.833333
ro,durnesti,Durnesti,07,4144,47.766667,27.1
ro,fundu lui bogdan,Fundu lui Bogdan,04,,46.516667,26.966667
ro,kisseten,Kisseten,36,,45.75,21.733333
ro,lacu baban,Lacu Baban,40,,45.6,26.966667
ro,majdan,Majdan,07,,47.666667,26.833333
ro,poiana marului,Poiana Marului,34,,47.4,26.016667
ro,urcu,Urcu,12,,44.835,21.833611
rs,brezani,Brezani,00,,43.324167,21.339722
rs,brvenik,Brvenik,00,,42.811111,21.426389
rs,donja susaja,Donja Susaja,00,,42.348889,21.689167
rs,kosavc,Kosavc,00,,42.089722,20.702222
rs,novi varos,Novi Varos,00,,43.474444,19.287778
ru,abazinka,Abazinka,43,,52.371111,40.196667
ru,antoshkovo,Antoshkovo,60,,56.983154,28.044173
ru,arapovka,Arapovka,09,,50.516679,36.291054
ru,balabin,Balabin,61,,47.418038,40.905633
ru,bobury,Bobury,69,,55.652199,34.03744
ru,bogatyye ploty,Bogatyye Ploty,43,,52.2047,38.2142
ru,borovskaya,Borovskaya,85,,60.587912,41.427837
ru,bukharevo,Bukharevo,21,,57.556909,42.273752
ru,buolkalakh,Buolkalakh,63,,72.933333,119.833333
ru,chernaya,Chërnaya,25,,53.982356,33.865987
ru,chertushkino,Chertushkino,73,,55.158716,51.016071
ru,farkovo,Farkovo,39,,65.716667,86.966667
ru,feklino,Fëklino,13,,55.5303,62.5169
ru,goloshchapovka,Goloshchapovka,41,,51.8762,37.6731
ru,gozhan,Gozhan,90,,56.524983,55.197102
ru,grobovo,Grobovo,71,,56.821483,59.53978
ru,isavshchino,Isavshchino,62,,53.716667,40.683333
ru,iso paljarvi,Iso Paljärvi,85,,60.983333,36.35
ru,kashino,Kashino,76,,53.929543,38.850109
ru,kazarevo,Kazarevo,69,,55.563611,33.346667
ru,kishkinskaya,Kishkinskaya,88,,57.9084,38.3193
ru,"kolik""yegan","Kolik""yegan",32,,61.722778,79.123056
ru,komlevskaya,Komlevskaya,85,,60.485293,43.056553
ru,kozlanga,Kozlanga,85,,59.3,41.083333
ru,krasnovskoye,Krasnovskoye,39,,56.4273,90.4276
ru,krutoye,Krutoye,56,,52.128106,37.190897
ru,kurovshchino,Kurovshchino,72,,52.895727,42.422968
ru,larina,Larina,40,,56.3599,63.5814
ru,lavyn,Lavyn,60,,58.670289,28.513795
ru,lebyazhye,Lebyazhye,75,,58.4879,82.7014
ru,luch,Luch,62,,54.447421,41.652052
ru,lukhino,Lukhino,52,,57.8073,30.8975
ru,lysmanovo,Lysmanovo,90,,57.976,56.8267
ru,malaya buinka,Malaya Buinka,73,,54.952973,48.238905
ru,mamosovo,Mamosovo,62,,55.064485,40.754622
ru,maslyanovka,Maslyanovka,54,,55.200385,72.659897
ru,molotovskoye,Molotovskoye,70,,45.846038,41.518852
ru,moma,Moma,63,,66.45,143.1
ru,monastyrka,Monastyrka,31,,53.217778,91.758889
ru,munay,Munay,29,,53.2134,86.9009
ru,nizhniy matveyevskiy,Nizhniy Matveyevskiy,61,,49.5868,42.1059
ru,ogarkov,Ogarkov,84,,49.483333,45.733333
ru,orelye,Orelye,52,,58.9,31.7
ru,osintseva,Osintseva,13,,54.916667,60.466667
ru,pentilia,Pentilia,42,,60.347091,28.678761
ru,podskalnoye,Podskalnoye,27,,44.0828,40.9664
ru,pogost dolgiy,Pogost Dolgiy,52,,58.46124,34.89096
ru,polyanskiy,Polyanskiy,81,,53.4443,47.8257
ru,prigorki,Prigorki,77,,57.758729,37.034264
ru,rodniki,Rodniki,90,,58.483585,56.754205
ru,rudenka,Rudenka,25,,54.831648,35.471399
ru,rudnitsa,Rudnitsa,77,,56.484784,34.268454
ru,rutaka,Rutaka,64,,46.714445,142.529389
ru,safronova,Safronova,32,,60.516667,65.316667
ru,sashino,Sashino,85,,59.702724,38.141314
ru,shalava,Shalava,88,,57.338865,39.817663
ru,shuklino,Shuklino,10,,52.761042,33.805808
ru,shumilovka,Shumilovka,42,,59.267471,29.936852
ru,sormovo,Sormovo,16,,55.6239,46.1939
ru,sorokino,Sorokino,69,,54.746293,34.231718
ru,suchki,Suchki,56,,52.798474,35.989271
ru,sukhona,Sukhona,06,,62.4237,40.5835
ru,svetlovo,Svetlovo,23,,54.897796,20.175694
ru,sysoyevka,Sysoyevka,69,,53.8527,33.0811
ru,toroetsukoe,Toroetsukoe,64,,46.920574,142.636883
ru,tretya alekseyevka,Tretya Alekseyevka,56,,52.575376,36.620852
ru,troitskiya ozerki,Troitskiya Ozerki,47,,55.091123,38.944901
ru,tumleyka,Tumleyka,51,,54.8166,42.5546
ru,turayki,Turayki,88,,57.8125,38.212
ru,turdali,Turdali,73,,56.15,52.916667
ru,turgenevo,Turgenevo,47,,55.33928,37.710371
ru,tyngiza,Tyngiza,53,,56.919812,76.719245
ru,ulazy,Ulazy,61,,48.846907,40.728971
ru,uspenska,Uspenska,78,,57.07454,65.063022
ru,voybokala,Voybokala,42,,59.881947,31.830927
ru,yakovlevskoye,Yakovlevskoye,88,,57.436263,39.383855
ru,yesino,Yesino,21,,56.723854,41.032016
ru,zaragat,Zaragat,08,,54.0386,54.6116
ru,zilanovo,Zilanovo,73,,55.416667,53.866667
sa,al-rawshan,Al-Rawshan,11,,20.01904,42.6168
sb,komurarata,Komurarata,08,,-9.4333333,160.2833333
sd,gebbid,Gebbid,33,,11.3833333,26.6333333
sd,korare,Korare,33,,12.9833333,23.4166667
se,ekeby,Ekeby,27,,56,12.966667
se,fansen,Fansen,03,,61.116667,16.233333
se,granberg,Granberg,10,,60.5,13.45
se,hermanstorp,Hermanstorp,06,,56.966667,12.583333
se,humlegardsstrand,Humlegårdsstrand,03,,61.35,17.166667
se,kvarnehagen,Kvarnehagen,28,,58.1,11.566667
se,salto,Saltö,28,,58.866667,11.116667
se,vahavaara,Vähävaara,14,,66.916667,21.9
si,brezovica pri gradinu,Brezovica pri Gradinu,04,,45.4511111,13.855
sk,novy svet,Nový Svet,04,,48.1,18.15
sk,svaty dur,Svaty dur,08,,48.95,18.85
sk,tura luka,Turá Lúka,06,,48.75,17.5333333
sl,allen town,Allen Town,04,,8.4136111,-13.1602778
sl,tefee,Tefee,01,,8.7,-11.2166667
sn,kolobane,Kolobane,07,,14.8191667,-17.0433333
sn,ndioubene galo,Ndioubène Galo,10,,13.9,-16.0
sn,nionaga,Nionaga,05,,12.4166667,-11.7166667
so,boosaaso,Boosaaso,03,,11.2847222,49.1825
so,ganbar,Ganbar,14,,1.45,43.9833333
so,marca,Marca,14,,1.7166667,44.8833333
st,germinia antonia,Germinia Antónia,01,,1.6333333,7.3833333
sv,ingeniero san andres,Ingeniero San Andrés,05,,13.8183333,-89.4044444
sy,ain daqne,Aïn Daqné,09,,36.5252778,37.0783333
sy,kawur kuy,Kawur Kuy,12,,35.95,36.25
sy,kharfan,Kharfan,09,,36.5833333,38.1666667
sy,mashat at turn,Mashat at Turn,04,,35.9416667,38.0805556
sy,tall basirah,Tall Basirah,14,,34.9833333,35.8666667
sy,tell el khodor,Tell el Khodor,14,,34.7333333,36.1
td,moundou,Moundou,08,135167,8.5666667,16.0833333
td,retgi,Retgi,04,,12.1,17.0
tg,amedjonokou,Amédjonokou,02,,6.2666667,1.5666667
tg,avedjikpodji,Avédjikpodji,10,,6.1952778,1.17
tg,lama tessi,Lama Tessi,22,,8.8333333,1.0833333
th,amphoe nakhon luang,Amphoe Nakhon Luang,36,,14.462807,100.608315
th,ban ba na ha ro,Ban Ba Na Ha Ro,70,,6.349806,101.272944
th,ban baek,Ban Baek,72,,15.833333,104.1
th,ban huai hua chang,Ban Huai Hua Chang,10,,17.707361,100.318334
th,ban huai po,Ban Huai Po,03,,19.992667,100.528389
th,ban kaeng noi,Ban Kaeng Noi,48,,12.907778,101.885111
th,ban khok chong,Ban Khok Chong,68,,6.586,100.700167
th,ban ko thak nuea,Ban Ko Thak Nuea,68,,6.895695,100.693778
th,ban krabuang,Ban Krabuang,16,,15.9,100.033333
th,ban mae ko luang,Ban Mae Ko Luang,03,,19.483333,99.6
th,ban map hua thing,Ban Map Hua Thing,68,,7.910278,100.289111
th,ban muang chum,Ban Muang Chum,03,,19.904917,99.952695
th,ban na muang thung,Ban Na Muang Thung,73,,17.054695,104.591222
th,ban saba yoi,Ban Saba Yoi,60,,9.183333,99.35
th,ban soi suk san,Ban Soi Suk San,48,,13.221806,102.169333
th,ban talad mai,Ban Talad Mai,35,,14.553,100.32175
th,ban thung sai,Ban Thung Sai,58,,10.533333,99.266667
th,ban wo,Ban Wo,06,,18.390833,99.346111
th,bang phae,Bang Phae,52,29548,13.691568,99.929816
th,king amphoe non din daeng,King Amphoe Non Din Daeng,28,,14.313529,102.748145
tm,esenguly,Esenguly,02,,37.4655556,53.9725
tr,abdicikmaza,Abdiçikmaza,04,,39.413072,43.132358
tr,aratepe,Aratepe,52,,40.684467,37.851923
tr,asagi kayi,Asagi Kayi,82,,40.566667,33.1
tr,bagbasi,Bagbasi,64,,38.746944,29.482222
tr,carikbozdag,Carikbozdag,45,,38.433333,28.65
tr,dokmetepe,Dökmetepe,60,,40.312245,36.291795
tr,durulova,Durulova,44,,38.35421,37.835367
tr,gullu,Güllü,72,,37.250822,40.715768
tr,guzeres,Guzeres,70,,37.324108,43.746803
tr,hacialiler,Hacialiler,43,,39.044444,29.504722
tr,hop,Hop,13,,38.147242,42.370205
tr,kekerli,Kekerli,49,,39.065834,42.347946
tr,kurugol koyu,Kurugöl Köyü,50,,38.433333,34.533333
tr,ortulu,Örtülü,03,,37.902967,29.781803
tr,parcinik,Parçinik,63,,37.418206,38.934371
tr,sorkun,Sorkun,03,,38.444722,30.054167
tr,susuz,Susuz,71,,37.305844,31.942972
tr,yasikaya,Yasikaya,04,,39.643615,43.388898
tr,yulari,Yulari,07,,36.359782,32.227241
tw,luku,Luku,04,,23.7463889,120.7547222
tw,putoukeng,Putoukeng,04,,25.25,121.5166667
tw,tingwutso,Tingwutso,04,,24.0666667,120.4333333
tz,kimu,Kimu,18,,-5.45,38.9666667
tz,magogoni,Magogoni,20,,-5.1666667,39.7833333
tz,mwakinda,Mwakinda,15,,-4.2166667,33.45
ua,beresna,Beresna,02,,51.571605,31.784558
ua,derebchin,Derebchin,23,,48.75559,28.335622
ua,klinki,Klinki,05,,47.290027,38.248897
ua,kommunary,Kommunary,11,,45.547881,34.222914
ua,kudobintse,Kudobintse,22,,49.701545,25.170552
ua,lidykhiv,Lidykhiv,22,,50.012626,25.393697
ua,maryevka,Maryevka,11,,45.114372,36.241136
ua,myslyatin,Myslyatin,09,,50.089091,26.713
ua,novoestoniya,Novoestoniya,11,,45.499596,34.242982
ua,stefanesti,Stefanesti,03,,48.616667,25.65
ua,yuryampol,Yuryampol,22,,48.739881,25.943217
us,allenfarm,Allenfarm,TX,,30.3991667,-96.2436111
us,bartholows,Bartholows,MD,,39.3738889,-77.2322222
us,basking ridge,Basking Ridge,NJ,,40.7061111,-74.5497222
us,belleville,Belleville,IL,40919,38.5200000,-89.9838889
us,bonny kate,Bonny Kate,TN,,35.8833333,-83.8997222
us,cedar mill,Cedar Mill,OR,13975,45.5250000,-122.8097222
us,cobham park,Cobham Park,VA,,38.0583333,-78.2619444
us,coldstream,Coldstream,MD,,39.4130556,-77.3097222
us,colony woods,Colony Woods,GA,,34.0988889,-84.5019444
us,de kalb,De Kalb,MS,,32.7675000,-88.6508333
us,diamond,Diamond,IA,,40.7630556,-92.9655556
us,elmwood,Elmwood,ME,,43.7225000,-70.5672222
us,etter,Etter,TN,,36.5613889,-85.0980556
us,fairbanks,Fairbanks,CA,,38.8658333,-120.6691667
us,fairthorne,Fairthorne,DE,,39.7727778,-75.6036111
us,gettysburg,Gettysburg,OH,,40.1113889,-84.4952778
us,grandview,Grandview,ID,,43.0530556,-112.7875000
us,high point,High Point,MO,,38.4844444,-92.5905556
us,hillsdale,Hillsdale,LA,,30.7444444,-90.6208333
us,huron,Huron,KS,,39.6383333,-95.3513889
us,jefferson center,Jefferson Center,PA,,40.7755556,-79.8350000
us,johnson,Johnson,ID,,46.4269444,-115.9155556
us,jonesboro,Jonesboro,AR,58619,35.8422222,-90.7041667
us,kimball,Kimball,NE,,41.2358333,-103.6625000
us,kinder,Kinder,LA,,30.4852778,-92.8505556
us,la push,La Push,WA,,47.9088889,-124.6352778
us,lambert,Lambert,AR,,34.3080556,-93.2063889
us,moscow,Moscow,AR,,34.1463889,-91.7950000
us,mountain park,Mountain Park,AL,,33.5650000,-86.7713889
us,new baltimore,New Baltimore,VA,,38.7672222,-77.7286111
us,newburg,Newburg,WV,,39.3883333,-79.8530556
us,oakway,Oakway,SC,,34.6011111,-83.0258333
us,palisades on the severn,Palisades on the Severn,MD,,39.0427778,-76.5777778
us,park view,Park View,IA,,41.6941667,-90.5455556
us,peola,Peola,WA,,46.3091667,-117.4819444
us,quincy hollow,Quincy Hollow,PA,,40.1536111,-74.8625000
us,saint francisville,Saint Francisville,IL,,38.5911111,-87.6466667
us,scoville,Scoville,ID,,43.4805556,-112.9952778
us,thomaston,Thomaston,NY,,40.7861111,-73.7141667
us,travis bridge,Travis Bridge,AL,,31.4541667,-86.7888889
us,verona,Verona,CA,,38.7861111,-121.6175000
us,wallingford,Wallingford,PA,,39.8908333,-75.3633333
us,wardlaw,Wardlaw,TX,,31.5463889,-97.0644444
us,waterway estates,Waterway Estates,FL,,26.6408333,-81.9091667
us,whitney heights,Whitney Heights,SC,,34.9777778,-81.9250000
ve,cachito de venado,Cachito de Venado,18,,8.8822222,-69.0155556
ve,el guarico,El Guarico,02,,9.7416667,-63.9958333
ve,el paradero,El Paradero,16,,9.7666667,-63.3166667
ve,jebucabanoco,Jebucabanoco,09,,9.2311111,-60.8444444
ve,la florida,La Florida,20,,7.7861111,-72.0466667
ve,las trincheras,Las Trincheras,06,,6.95,-64.9
ve,oficina guamal,Oficina Guamal,15,,10.35,-66.9666667
ve,palmira,Palmira,15,,10.0461111,-66.2775
ve,rancho chico,Rancho Chico,02,,9.2955556,-64.6661111
vn,ap go dat,Ap Go Dat,21,,9.866667,105.2
vn,ap hung hoa tay,Ap Hung Hoa Tay,03,,10.083333,106.483333
vn,ban suk,Ban Suk,07,,12.8,108.466667
vn,dam ngoc bai,Dam Ngoc Bai,37,,10.433333,106
vn,loung than,Loung Than,17,,23.116667,105.5
vn,luong ma,Luong Ma,31,,11.666667,106.733333
vn,mao-sao-phing,Mao-Sao-Phing,22,,22.316667,103.25
vn,muong te,Muong Te,22,,22.466667,102.616667
vn,phu dien,Phu Dien,28,,13.216667,109.25
vn,ple brang tpe,Ple Brang Tpe,10,,13.75,108.4
vn,som quc,Som Quc,19,,21.716667,104.9
vn,tien loc sach,Tien Loc Sach,26,,19.416667,105.15
vn,van truong,Van Truong,15,,21.016667,105.833333
vn,xom gai,Xóm Gai,86,,21.246882,105.202138
ye,`uruq,`Uruq,16,,15.4933333,44.2561111
ye,al jinnat,Al Jinnat,16,,15.6844444,43.9427778
ye,al-buqairain,Al-Buqairain,04,,14.5525,49.1255556
zm,mwambula,Mwambula,06,,-14.1333333,31.2833333
zr,bengengai,Bengengai,09,,4.8333333,27.6833333
zr,bingo,Bingo,09,,0.5333333,29.3166667
zr,ileo,Ileo,00,,-0.45,20.4166667
zr,kimwanga,Kimwanga,10,,-3.7166667,26.6833333
zr,lieke,Lieke,09,,-1.2833333,23.85
zr,nkame,Nkame,08,,-4.7944444,15.0819444
zr,tshimpuki,Tshimpuki,03,,-5.9786111,22.5275
zw,mtoroshanga,Mtoroshanga,04,,-17.15,30.6666667
